City_ID,City,Country,Max Temp,Current Description,Lat,Lng,Hotel Name
0,Tasiilaq,GL,30.36,overcast clouds,65.6145,-37.6368,The Red House
1,Pangai,TO,82.51,broken clouds,-19.8,-174.35,Ha'apai Beach Resort
2,Dingle,PH,74.32,overcast clouds,10.9995,122.6711,SEGAYA PROPERTY
3,Lebu,CL,61.92,clear sky,-37.6167,-73.65,Hostal Las Lilas
4,Coihaique,CL,78.66,clear sky,-45.5752,-72.0662,Diego De Almagro Coyhaique
5,Mataura,NZ,61.48,clear sky,-46.1927,168.8643,Ellie's Villa
6,Songjianghe,CN,11.37,scattered clouds,42.1859,127.479,Sijisheng Fashion Guest House
7,Cape Town,ZA,62.1,clear sky,-33.9258,18.4232,Southern Sun Waterfront Cape Town
9,Osterburg,DE,34.5,overcast clouds,52.7833,11.7667,Altmarkhotel
10,La Crau,FR,47.17,clear sky,43.1498,6.0743,Hôtel Kyriad Toulon La Garde
11,Kirkwall,GB,41.05,few clouds,58.9848,-2.9587,Kirkwall Hotel
12,Piacabucu,BR,79.23,clear sky,-10.4056,-36.4344,Piaçabuçu News
13,Coos Bay,US,52.23,overcast clouds,43.3665,-124.2179,Best Western Holiday Hotel
14,Salta,AR,64.58,overcast clouds,-24.7859,-65.4117,Hotel Alejandro I
15,Rikitea,PF,76.3,broken clouds,-23.1203,-134.9692,People ThankYou
17,Tuatapere,NZ,61.83,clear sky,-46.1333,167.6833,Ron and Tony's Bed & Breakfast
18,Valle Nacional,MX,86.31,clear sky,17.7833,-96.3167,Cabaña San Mateo Yetla
19,Kamien Pomorski,PL,30.94,overcast clouds,53.9685,14.7726,Mieszko II
20,Kumbo,CM,63.16,overcast clouds,6.2,10.6667,Western Inn Resort
21,Sitka,US,33.69,overcast clouds,57.0531,-135.33,Westmark Sitka
22,Bluff,NZ,61.81,clear sky,-46.6,168.3333,Bluff Homestead - Guesthouse & Campervan Park
23,Rosita,NI,79.92,few clouds,13.9268,-84.4032,Hospedaje Zeledón
24,Fairbanks,US,26.56,overcast clouds,64.8378,-147.7164,Westmark Fairbanks Hotel & Conference Center
25,Golden,US,47.84,overcast clouds,39.7555,-105.2211,"The Golden Hotel, Ascend Hotel Collection"
26,Los Llanos De Aridane,ES,64.15,broken clouds,28.6585,-17.9182,Valle Aridane
29,Longyearbyen,SJ,35.44,broken clouds,78.2186,15.6401,"Radisson Blu Polar Hotel, Spitsbergen"
30,Muisne,EC,80.71,broken clouds,0.6,-80.0333,Quinta Samay
32,Saint-Philippe,RE,76.59,scattered clouds,-21.3585,55.7679,"Chambres d'hôte ""La Trinité"""
33,Barrow,US,24.82,clear sky,71.2906,-156.7887,King Eider Inn
34,Katsuura,JP,55.18,overcast clouds,35.1333,140.3,Katsuura Hotel Mikazuki
35,Kodiak,US,38.71,moderate rain,57.79,-152.4072,Best Western Kodiak Inn And Convention Center
36,Jambi,ID,73.54,overcast clouds,-1.6,103.6167,ASTON Jambi Hotel & Conference Center
37,Jamestown,US,36.99,light snow,42.097,-79.2353,Hampton Inn & Suites Jamestown
38,Saint-Francois,FR,39.47,light rain,46.4154,3.9054,Manoir Du Bonheur
39,Kaeo,NZ,73.33,overcast clouds,-35.1,173.7833,Bushido Lodge
40,Atuona,PF,79.21,few clouds,-9.8,-139.0333,Villa Enata
41,Ketchikan,US,30.67,clear sky,55.3422,-131.6461,Snow's Cove Lodge
43,Dongsheng,CN,24.96,broken clouds,39.8161,109.9776,Crowne Plaza Ordos
44,Klaksvik,FO,41.92,broken clouds,62.2266,-6.589,Airbnb rooms
45,Punta Arenas,CL,51.12,light rain,-53.15,-70.9167,Hotel Hain
46,Tuktoyaktuk,CA,8.64,overcast clouds,69.4541,-133.0374,End of The Road Ltd.
47,Hobart,AU,56.12,light intensity shower rain,-42.8794,147.3294,Mantra on Collins Hobart
48,Ushuaia,AR,48.43,overcast clouds,-54.8,-68.3,Albatros Hotel
49,Castro,BR,60.49,broken clouds,-24.7911,-50.0119,CHACARA BAILLY
50,Cidreira,BR,68.72,few clouds,-30.1811,-50.2056,Hotel Castelo
51,Saint-Joseph,RE,75.58,few clouds,-21.3667,55.6167,"""Plantation Bed and Breakfast"
52,North Platte,US,31.98,clear sky,41.1239,-100.7654,"Holiday Inn Express & Suites North Platte, an IHG Hotel"
53,Ribeira Grande,PT,64.83,overcast clouds,38.5167,-28.7,Quinta da Meia Eira
54,Ratnagiri,IN,72.07,overcast clouds,16.9833,73.3,Hotel Landmark
55,Nelson Bay,AU,68.0,moderate rain,-32.7167,152.15,Mantra Nelson Bay
56,Bredasdorp,ZA,52.29,few clouds,-34.5322,20.0403,Bredasdorp Country Manor
57,Qasigiannguit,GL,19.65,overcast clouds,68.8193,-51.1922,Hotel Diskobay
58,Bethel,US,57.49,broken clouds,41.3712,-73.414,Courtyard by Marriott Danbury
59,Nova Soure,BR,77.74,scattered clouds,-11.2333,-38.4833,Branca Hotel
60,Mazagao,BR,84.25,moderate rain,-0.115,-51.2894,Recanto dos Ferreiras
61,San Onofre,CO,80.96,scattered clouds,9.7359,-75.5263,Hotel Sinai
62,New Norfolk,AU,55.76,overcast clouds,-42.7826,147.0587,The Shingles Riverside Cottages
63,Plouzane,FR,50.09,overcast clouds,48.3833,-4.6167,Lymina
64,Vaini,TO,82.56,broken clouds,-21.2,-175.2,Keleti Beach Resort
65,Butaritari,KI,83.05,light rain,3.0707,172.7902,Isles Sunset Lodge
66,Hami,CN,28.9,overcast clouds,42.8,93.45,Laoyutang Resort
68,Hvide Sande,DK,35.1,overcast clouds,56.0045,8.1294,Hvide Sande Hotel
69,Walvis Bay,,60.1,clear sky,-22.9575,14.5053,Oyster Box Guesthouse
70,Guapore,BR,71.15,few clouds,-28.8456,-51.8903,Hotel Topo Gigio
71,Puerto Ayora,EC,76.96,broken clouds,-0.7393,-90.3518,Finch Bay Galapagos Hotel
73,Hilo,US,78.28,heavy intensity rain,19.7297,-155.09,Hilo Hawaiian Hotel
74,Mahebourg,MU,78.26,few clouds,-20.4081,57.7,Shandrani Beachcomber Resort & Spa
76,Gorontalo,ID,75.38,overcast clouds,0.5412,123.0595,Maqna Hotel by Prasanthi
77,Chuy,UY,66.78,clear sky,-33.6971,-53.4616,Nuevo Hotel Plaza
79,San Cristobal,VE,77.11,scattered clouds,7.7669,-72.225,Posada Villaven C.A.
82,Port Blair,IN,77.4,broken clouds,11.6667,92.75,"Welcomhotel By ITC Hotels, Bay Island, Port Blair"
83,Arraial Do Cabo,BR,74.39,broken clouds,-22.9661,-42.0278,Pousada Porto Praia
85,Kapaa,US,71.92,mist,22.0752,-159.319,Sheraton Kauai Coconut Beach Resort
86,Souillac,MU,78.37,few clouds,-20.5167,57.5167,Shanti Maurice Resort & Spa
87,Dolinsk,RU,33.66,clear sky,47.35,142.8,"Gostinitsa ""Yubileynaya"""
88,Carnarvon,AU,73.47,overcast clouds,-24.8667,113.6333,Hospitality Carnarvon
89,Paamiut,GL,22.3,light snow,61.994,-49.6678,Pistut
90,Brazzaville,CG,75.45,overcast clouds,-4.2658,15.2832,Hotel Muesse
94,Dolores Hidalgo,MX,75.87,broken clouds,21.1561,-100.9308,Hotel Hidalgo
96,Hermanus,ZA,58.89,clear sky,-34.4187,19.2345,Misty Waves Boutique Hotel
97,Hovd,MN,15.94,scattered clouds,48.0056,91.6419,Hotel Khovd
98,Kenai,US,34.03,light snow,60.5544,-151.2583,Aspen Extended Stay Suites
99,Pozo Colorado,PY,91.38,broken clouds,-23.4923,-58.7972,Hospedaje la Amistad
100,Bandarbeyla,SO,75.83,clear sky,9.4942,50.8122,JABIR HOTEL
101,Zyryanovsk,KZ,17.17,overcast clouds,49.7386,84.2719,Гостиница «ЭВЕРЕСТ»
102,Narsaq,GL,21.42,broken clouds,60.9167,-46.05,Sleep In Narsaq
104,Poum,NC,81.63,clear sky,-20.2333,164.0167,Gîte kajeon
105,Alice Springs,AU,71.15,broken clouds,-23.7,133.8833,Desert Palms Alice Springs
106,Bengkulu,ID,74.97,moderate rain,-3.8004,102.2655,Grage Hotel Bengkulu
107,Kaitangata,NZ,53.24,overcast clouds,-46.2817,169.8464,Kaitangata Motor Camp
108,Tselinnoye,RU,28.22,overcast clouds,53.0833,85.6667,Zolotaya Podkova
109,Saint George,US,64.35,clear sky,37.1041,-113.5841,Best Western Plus Abbey Inn
110,Busselton,AU,58.05,clear sky,-33.65,115.3333,Observatory Guest House
111,Puerto Carreno,CO,88.61,scattered clouds,6.189,-67.4859,Casa Hotel Victoria
112,Amahai,ID,78.58,overcast clouds,-3.3333,128.9167,HOTEL ISABELA
113,Santiago Del Estero,AR,88.0,broken clouds,-27.7951,-64.2615,Apartamentos Castelli 90
114,Geraldton,AU,75.61,clear sky,-28.7667,114.6,Broadwater Mariner Resort
115,Hamilton,US,38.23,clear sky,39.1834,-84.5333,Six Acres Bed & Breakfast
116,Evans,US,70.81,overcast clouds,33.5337,-82.1307,Evans hide out
117,Rodrigues Alves,BR,75.4,overcast clouds,-7.738,-72.6509,Pousada Aconchego
118,Autazes,BR,77.54,light rain,-3.5797,-59.1306,Apart hotel Tupinambá
119,Tezu,IN,64.81,overcast clouds,27.9167,96.1667,Circuit House
120,Nisia Floresta,BR,81.41,few clouds,-6.0911,-35.2086,Rancho Crepusculo
123,Qaanaaq,GL,19.8,overcast clouds,77.484,-69.3632,Qaanaaq Hotel
124,Puerto Rico,AR,83.08,clear sky,-26.796,-55.024,Hotel Cabañas del Prado
126,Georgetown,MY,77.9,few clouds,5.4112,100.3354,Cititel Penang
127,Grindavik,IS,36.07,broken clouds,63.8424,-22.4338,Northern Light Inn & Max's Restaurant
128,Severo-Kurilsk,RU,37.15,broken clouds,50.6789,156.125,Kak Doma
130,Krasnyy Klyuch,RU,1.76,broken clouds,55.3863,56.6529,"Gostevoy Dom ""Krasnyy Klyuch"""
131,Sampit,ID,72.39,overcast clouds,-2.5333,112.95,Aquarius Boutique Hotel Sampit
132,Kurtamysh,RU,6.62,few clouds,54.9103,64.4319,Kurtamysh
133,Iqaluit,CA,10.13,scattered clouds,63.7506,-68.5145,Frobisher Inn
134,Pisco,PE,69.85,moderate rain,-13.7,-76.2167,Hotel San Isidro Oficial
135,Kharan,PK,54.81,clear sky,28.5833,65.4167,Dil Aram Bangla
136,Sabzevar,IR,45.01,clear sky,36.2126,57.6819,پزشکی قانونی سبزوار
137,Korla,CN,29.86,overcast clouds,41.7597,86.1469,Gulisitan Hotel
138,Vila Velha,BR,71.55,light rain,-20.3297,-40.2925,Quality Suites Vila Velha
139,The Valley,AI,81.1,few clouds,18.217,-63.0578,CeBlue Villas & Beach Resort
140,West Plains,US,43.63,clear sky,36.7281,-91.8524,West Plains Motel
141,Cartagena,CO,85.62,scattered clouds,10.3997,-75.5144,Hotel Colombia Real - Cartagena
143,Gisborne,NZ,74.95,overcast clouds,-38.6533,178.0042,ASURE Alfresco Motor Lodge
144,Esperance,AU,57.51,few clouds,-33.8667,121.9,Hospitality Esperance
146,Padang,ID,76.84,overcast clouds,-0.9492,100.3543,Mercure Padang
147,San Quintin,MX,66.11,clear sky,30.4833,-115.95,Don Eddie's Landing
148,Liberal,US,38.44,clear sky,37.0431,-100.921,Hampton Inn & Suites Liberal
149,Mount Pleasant,US,68.14,clear sky,32.7941,-79.8626,Best Western Patriots Point
150,Nanortalik,GL,24.46,broken clouds,60.1432,-45.2371,Hotel Kap Farvel
152,Faanui,PF,80.58,moderate rain,-16.4833,-151.75,Bora-Bora Pearl Beach Resort & Spa
153,Rocha,UY,66.65,scattered clouds,-34.4833,-54.3333,Hotel Arrarte
155,Muros,ES,57.09,overcast clouds,42.7762,-9.0603,Apartment Av. Castelao
156,Marquette,US,15.24,overcast clouds,46.5333,-87.6335,Al Quaal Lodge
157,Ponta Do Sol,PT,65.03,broken clouds,32.6667,-17.1,Hotel do Campo
158,Mount Gambier,AU,57.69,broken clouds,-37.8333,140.7667,The Commodore
159,Yakeshi,CN,9.84,few clouds,49.2833,120.7333,Longhua Hotel
161,Mildura,AU,64.36,clear sky,-34.2,142.15,Mercure Hotel Mildura
162,Pochutla,MX,89.42,clear sky,15.7432,-96.4661,Hotel Posada San Jose
164,Lucena,PH,74.34,broken clouds,13.9314,121.6172,The Star Garden Tower Hotel
165,Port Alfred,ZA,64.98,broken clouds,-33.5906,26.891,The Halyards Hotel
166,Guerrero Negro,MX,73.67,clear sky,27.9769,-114.0611,"Casa Laguna, Bed & Breakfast"
168,Bambous Virieux,MU,78.22,few clouds,-20.3428,57.7575,Casa Tia Villa
169,Chlorakas,CY,63.63,few clouds,34.8042,32.4083,Elysium Hotel
170,Upernavik,GL,18.01,overcast clouds,72.7868,-56.1549,Gina's Guesthouse - Upernavik
172,Dicabisagan,PH,74.53,overcast clouds,17.0818,122.4157,Nancy Montanes Bernardo
173,Port Hedland,AU,82.45,broken clouds,-20.3167,118.5667,The Esplanade Hotel
174,Hokitika,NZ,55.27,overcast clouds,-42.7167,170.9667,Beachfront Hotel Hokitika
175,Cockburn Town,TC,80.73,overcast clouds,21.4612,-71.1419,Osprey Beach Hotel
176,Mogadishu,SO,79.29,overcast clouds,2.0371,45.3438,Hotel Juba
177,Mackay,AU,81.68,overcast clouds,-21.15,149.2,International Lodge Motel
178,Antofagasta,CL,65.5,scattered clouds,-23.65,-70.4,"Holiday Inn Express Antofagasta, an IHG Hotel"
180,Pangnirtung,CA,12.2,light snow,66.1451,-65.7125,Kilabuk Lodge
181,Vardo,NO,11.95,overcast clouds,70.3705,31.1107,Vardø Hotel AS
182,Ust-Tsilma,RU,11.97,overcast clouds,65.441,52.1498,U Praskov'i
183,Ilulissat,GL,19.42,overcast clouds,69.2167,-51.1,Hotel Arctic
184,Faro,PT,49.78,clear sky,37.0194,-7.9322,Hotel Faro & Beach Club
186,Hithadhoo,MV,81.7,scattered clouds,-0.6,73.0833,Scoop Guest House
188,Bama,NG,73.08,overcast clouds,11.5221,13.6856,UN Humanitarian Hub
189,Point Pleasant,US,64.51,clear sky,40.0832,-74.0682,Point Pleasant Manor
190,Paray-Le-Monial,FR,39.97,mist,46.4546,4.1158,Hostellerie Des Trois Pigeons
191,Anaconda,US,36.77,overcast clouds,46.1285,-112.9423,Trade Wind Motel
192,Luau,AO,64.11,light rain,-10.7073,22.2247,Casa- Bernardo Cândido
194,Bataipora,BR,88.57,scattered clouds,-22.2953,-53.2711,Hotel Vale do Ivinhema
196,Henties Bay,,59.86,clear sky,-22.116,14.2845,Fishermans Guest House
197,Cabo San Lucas,MX,82.51,clear sky,22.8909,-109.9124,Hotel Tesoro Los Cabos
199,Atar,MR,68.81,overcast clouds,20.5169,-13.0499,Oumou Elghoura
200,Jalalabad,AF,54.63,overcast clouds,34.4265,70.4515,انصاف چهاردهي هوټل
202,Kilindoni,TZ,81.14,scattered clouds,-7.9139,39.6668,Bustani B&B
203,Flinders,AU,72.18,scattered clouds,-34.5833,150.8552,Shellharbour Resort & Conference Centre
204,Sorland,NO,26.6,clear sky,67.667,12.6934,Sjybrygga fiskecamp
205,Chekhov,RU,25.09,light snow,55.1431,37.4711,Domik v derevne
206,Nouadhibou,MR,67.98,overcast clouds,20.931,-17.0347,El Medina
207,General Cepeda,MX,76.41,overcast clouds,25.3833,-101.45,Hacienda Los Jose
208,Indianola,US,24.66,clear sky,41.3581,-93.5574,Quality Inn Indianola
209,San Patricio,US,72.01,overcast clouds,28.017,-97.5169,"Motel 6 Sinton, TX"
210,Gopalpur,IN,73.87,clear sky,19.2667,84.9167,Gopalpur Palm Resort
212,Airai,TL,62.2,overcast clouds,-8.9266,125.4092,Juvinal Martin
214,Birpur,IN,66.42,clear sky,26.5167,87.0167,Maa Sherawali Sweet Content
215,Hasaki,JP,48.29,overcast clouds,35.7333,140.8333,Hotel Sunrise Choshi
216,Grezzana,IT,37.99,clear sky,45.5203,11.0177,Residenza Borgo 27
217,Port-Gentil,GA,78.35,overcast clouds,-0.7193,8.7815,Fengshui Residence
218,Cayenne,GF,78.1,clear sky,4.9333,-52.3333,Hôtel Le Dronmi
219,Gornyy,RU,27.79,snow,55.1153,83.9059,Gostinyy Dvor
220,Adolfo Lopez Mateos,MX,63.93,clear sky,28.4667,-107.3,Hotel Victor Inn
222,Camacha,PT,62.02,broken clouds,33.0833,-16.3333,Hotel Porto Santo & Spa
225,Bani Walid,LY,50.58,clear sky,31.7566,13.9942,منزل الصابر أبوفانة
226,Ambon,ID,78.94,scattered clouds,-3.6954,128.1814,Swiss-Belhotel Ambon
227,Kokkola,FI,12.92,few clouds,63.8385,23.1307,Hotel Kokkola
228,Kununurra,AU,80.58,broken clouds,-15.7667,128.7333,Hotel Kununurra
229,Kang,BW,77.02,broken clouds,-23.6752,22.7876,Kang Ultra Stop
230,Nikolskoye,RU,5.02,light snow,59.7035,30.7861,Tourist House - Sablino
231,Siderno,IT,51.84,scattered clouds,38.2779,16.302,Grand Hotel President
232,Mantua,IT,39.81,clear sky,45.1667,10.7833,Hotel la Favorita
234,Hervey Bay,AU,77.11,overcast clouds,-25.2986,152.8535,Shelly Bay Resort
235,Havre-Saint-Pierre,CA,28.4,snow,50.2334,-63.5986,Auberge Niapiskau
236,Puerto Baquerizo Moreno,EC,74.39,broken clouds,-0.9,-89.6,Hotel los Algarrobos
238,Sawakin,SD,81.99,clear sky,19.1059,37.3321,فندق الدويم
239,Khilok,RU,11.32,few clouds,51.3674,110.4676,"Gostevoy Dom ""Magnit"""
241,Namatanai,PG,80.65,light rain,-3.6667,152.4333,Seagulls Inn Namatani
242,Ostersund,SE,7.25,broken clouds,63.1792,14.6357,Best Western Hotel Gamla Teatern
244,Black River,JM,84.2,clear sky,18.0264,-77.8487,Idlers' Rest Beach Hotel
245,Cap Malheureux,MU,78.48,clear sky,-19.9842,57.6142,Pereybere Hotel & Spa
246,Hofn,IS,37.98,overcast clouds,64.2539,-15.2082,Hótel Höfn
247,Bonthe,SL,80.55,scattered clouds,7.5264,-12.505,Bonthe Holiday Village
248,Lively,CA,32.81,light snow,46.4334,-81.1498,Lively Inn and Suites - Sudbury
249,Iralaya,HN,84.29,clear sky,15.0,-83.2333,Iglesia morava renovada
250,Barnova,RO,36.95,light intensity drizzle,47.0667,27.6167,Bucium Motel and Spa
252,Solnechnyy,RU,9.41,scattered clouds,50.7214,136.6319,Hotel complex Pastoral
254,Cervo,ES,55.53,broken clouds,43.6702,-7.4101,Hotel Spa Galatea
255,Port Elizabeth,ZA,62.1,broken clouds,-33.918,25.5701,39 On Nile Guest House
257,Chengam,IN,71.62,broken clouds,12.3,78.8,C.T.S.Lodge
258,Roma,US,45.52,moderate rain,43.2128,-75.4557,Wingate By Wyndham Rome
259,Cascais,PT,58.46,few clouds,38.6979,-9.4215,Hotel Vila Galé Cascais
260,Avarua,CK,75.25,light rain,-21.2078,-159.775,Paradise Inn
261,Ancud,CL,68.86,clear sky,-41.8697,-73.8203,Hotel Arena Gruesa
262,Celestun,MX,79.95,clear sky,20.8667,-90.4,Posada Lilia
263,Santa Clara,CU,85.66,scattered clouds,22.4,-79.9667,El Carmen
264,Paro,BT,39.83,scattered clouds,27.4305,89.4133,Metta Resort and Spa
265,Pacifica,US,60.3,mist,37.6138,-122.4869,"Pacifica Lighthouse, Trademark Collection by Wyndham"
266,Bikaner,IN,62.51,clear sky,28.0167,73.3,Karina Guest House
267,Stromness,GB,40.96,few clouds,58.965,-3.296,The Old Smokery
268,Frontignan,FR,52.0,overcast clouds,43.4485,3.754,Domain Selhac: Cottages in Frontignan
269,Vao,NC,77.83,clear sky,-22.6667,167.4833,Hotel Kou-Bugny
270,Sooke,CA,43.07,overcast clouds,48.3746,-123.7276,Sooke Harbour House Hotel & Resort
271,Cutro,IT,43.86,broken clouds,39.0353,16.9819,Gallella Viaggi - Agenzia Viaggi e Turismo
272,Codrington,AU,57.09,overcast clouds,-38.2667,141.9667,Codrington Gardens Bed And Breakfast
273,Tynset,NO,1.02,overcast clouds,62.2759,10.7824,Tynset Rooms & Camping
274,Lata,PT,58.05,overcast clouds,40.1629,-8.3327,Casa Maquia
275,Ulaangom,MN,4.41,overcast clouds,49.9811,92.0667,Achit Nuur Hotel & Restaurant
276,Limon,CR,84.09,clear sky,10.0,-83.0333,Hotel Playa Bonita
277,Champerico,GT,89.76,clear sky,14.3,-91.9167,"Hotel y restaurante ""El Diamante"""
278,Kavieng,PG,82.33,moderate rain,-2.5744,150.7967,Nusa Island Retreat
280,Itacarambi,BR,73.38,moderate rain,-15.1022,-44.0919,POUSADA CAMALEÃO
281,Shelburne,CA,31.57,light snow,44.0787,-80.2041,The Retreat at the Farm
285,Tongeren,BE,39.94,light rain,50.7805,5.4648,Eburon Hotel - Different Hotels
286,Kreminna,UA,37.56,overcast clouds,49.0495,38.2179,"ОЗЕРНЫЙ, САНАТОРИЙ"
287,Tateyama,JP,55.09,overcast clouds,34.9833,139.8667,Tateyama Seaside Hotel
288,Constitucion,CL,60.82,broken clouds,-35.3333,-72.4167,Hotel Boutique Las Azucenas
289,Carballo,ES,56.01,overcast clouds,43.213,-8.691,Pazo do Souto
290,Kudahuvadhoo,MV,81.25,scattered clouds,2.6708,72.8944,Niyama Private Islands Maldives
291,Takoradi,GH,80.65,overcast clouds,4.8845,-1.7554,Raybow International Hotel
292,Williston,US,12.61,overcast clouds,48.147,-103.618,Hampton Inn & Suites Williston
293,Laguna,US,55.24,mist,38.421,-121.4238,"Holiday Inn Express & Suites Elk Grove Central - Hwy 99, an IHG Hotel"
295,Careiro Da Varzea,BR,79.43,moderate rain,-3.2003,-59.8119,POUSADA DA ALDENORA
296,Tupiza,BO,60.24,light rain,-21.45,-65.7167,La Torre Hotel
297,Emirdag,TR,46.17,clear sky,39.0197,31.15,Emirdağ Öğretmenevi
298,Lompoc,US,71.22,clear sky,34.6391,-120.4579,"Holiday Inn Express Lompoc, an IHG Hotel"
299,Berkovica,BA,35.91,light rain,44.6156,18.4294,Đokina čeka
300,Lazaro Cardenas,MX,84.16,clear sky,17.9583,-102.2,quinta antigua
301,Valparaiso,CL,62.47,clear sky,-33.0393,-71.6273,Hotel Ultramar
302,Olafsvik,IS,35.64,moderate rain,64.8945,-23.7142,Hotel Olafsvik
303,Mali,GN,63.72,scattered clouds,12.079,-12.2982,Hotel La Dame de Mali
304,Canico,PT,65.48,broken clouds,32.6333,-16.85,Quinta Splendida Wellness & Botanical Garden
305,Pombas,CV,71.38,clear sky,17.1503,-25.0201,Paul Paradis
306,Pacific Grove,US,64.42,broken clouds,36.6177,-121.9166,Lovers Point Inn
307,Hukuntsi,BW,76.89,clear sky,-24.0,21.75,Entabeni Hotel
309,Irbit,RU,4.91,few clouds,57.6705,63.071,Nitsa
310,Husavik,IS,31.91,broken clouds,66.0449,-17.3389,Bjarnabúð
311,Manavalakurichi,IN,78.89,few clouds,8.1333,77.3,Muttom beach west
312,George,ZA,60.08,overcast clouds,-33.963,22.4617,Protea Hotel by Marriott George King George
313,Sept-Iles,CA,28.06,snow,50.2001,-66.3821,Comfort Inn
314,Westport,US,58.55,overcast clouds,41.1415,-73.3579,Norwalk Inn
315,Aklavik,CA,16.52,broken clouds,68.2191,-135.0107,Aklavik Inn
316,Vanimo,PG,79.56,overcast clouds,-2.6741,141.3028,Vahmoneh Lodge Vanimo
320,Kuryk,KZ,45.39,clear sky,43.2,51.65,Gostinitsa Kuryk - Otel' Dlya Vsekh Kategoriy Kliyentov .
321,Barcelos,PT,57.34,overcast clouds,41.5388,-8.6151,Hotel Do Terço
322,Anapskaya,RU,53.83,few clouds,44.89,37.38,Continent Hotel
323,Bubaque,GW,81.63,broken clouds,11.2833,-15.8333,"Casa Dora, Bubaque"
324,Ambovombe,MG,77.49,clear sky,-25.1667,46.0833,RELAHARA
325,Parrita,CR,87.57,broken clouds,9.5201,-84.3225,Beso del Viento
327,Bath,GB,42.76,clear sky,51.3779,-2.3591,Francis Hotel Bath - MGallery
328,Quelimane,MZ,82.35,clear sky,-17.8786,36.8883,Hotel Flamingo
329,Sidney,AU,73.26,broken clouds,-33.8679,151.2073,The Grace Sydney
330,Pingliang,CN,34.2,overcast clouds,35.5392,106.6861,North Gate Hostel
331,Alofi,NU,78.69,light intensity shower rain,-19.0595,-169.9187,Taloa Heights
333,Kokopo,PG,80.37,overcast clouds,-4.352,152.2633,Kokopo Beach Bungalow Resort
334,Tromso,NO,15.82,clear sky,69.6496,18.957,"Radisson Blu Hotel, Tromsø"
335,Yulara,AU,75.04,clear sky,-25.2406,130.9889,Desert Gardens Hotel - Ayers Rock Resort
337,Porto Novo,BJ,84.02,broken clouds,6.4965,2.6036,Tour Eiffel Hotel Benin
340,Mayo,US,70.25,overcast clouds,38.8876,-76.5119,Resorts Resource Group International
341,Prieska,ZA,69.67,clear sky,-29.6641,22.7474,Avenue GuestHouse
343,Imbituba,BR,71.82,broken clouds,-28.24,-48.6703,Praia Hotel Imbituba
344,Sorong,ID,82.36,overcast clouds,-0.8833,131.25,Waigo Splash Hotel
345,Torbay,CA,33.67,overcast clouds,47.6666,-52.7314,Gallows Cove
346,Bucerias,MX,80.58,scattered clouds,20.75,-105.3333,Royal Decameron Complex - Puerto Vallarta
347,Ovre Ardal,NO,10.81,overcast clouds,61.3167,7.8,Sitla Motel & Apartment
348,Coquimbo,CL,62.4,clear sky,-29.9533,-71.3436,Punto de encuentro
349,Zhangye,CN,24.28,scattered clouds,38.9342,100.4517,Zhangye Lvzhou Holiday Inn
350,Banda Aceh,ID,78.35,light rain,5.5577,95.3222,Sulthan Hotel International
351,Khorramshahr,IR,57.16,clear sky,30.4397,48.1664,دفتر نمایندگی شرکت بازاریابان ایرانیان زمینBIZ
352,Shetpe,KZ,40.51,few clouds,44.1667,52.1167,Rtsm Shetpe Analog
353,Lorengau,PG,83.88,overcast clouds,-2.0226,147.2712,Lorengau Harbourside Hotel
355,Nelspruit,ZA,73.69,overcast clouds,-25.4745,30.9703,Leaves Lodge and Spa
356,Asyut,EG,60.37,overcast clouds,27.181,31.1837,Florence Hotel Assiut
358,Marsh Harbour,BS,77.85,clear sky,26.5412,-77.0636,Abaco Beach Resort
359,Burgeo,CA,37.2,overcast clouds,47.6167,-57.6152,Gillett's Motel
360,Puerto Del Rosario,ES,64.15,broken clouds,28.5004,-13.8627,Hotel JM Puerto del Rosario
361,Vestmannaeyjar,IS,38.23,light rain,63.4427,-20.2734,Glamping & Camping
362,Coro,VE,81.03,scattered clouds,11.4045,-69.6734,Federal
363,Dubbo,AU,71.73,broken clouds,-32.25,148.6167,Comfort Inn Blue Lagoon
364,Katherine,AU,84.52,scattered clouds,-14.4667,132.2667,Pine Tree Motel
365,Valley City,US,4.19,clear sky,46.9233,-98.0032,AmericInn by Wyndham Valley City Conference Center
366,Iranshahr,IR,61.21,clear sky,27.2025,60.6848,نیک سرشت
367,Mezen,RU,15.57,overcast clouds,65.8522,44.24,Gostevoy Dom Everest
368,Isangel,VU,83.59,clear sky,-19.55,169.2667,Tanna Lodge
369,Guadalupe Y Calvo,MX,57.47,broken clouds,26.1,-106.9667,Hotel Pizarro
370,Hambantota,LK,76.39,scattered clouds,6.1241,81.1185,Bungalow 63
371,Elat,IL,62.44,clear sky,29.5581,34.9482,Club Hotel Eilat
372,Soma,TR,60.21,overcast clouds,39.1855,27.6094,Hotel Labella
373,East London,ZA,65.7,light rain,-33.0153,27.9116,Tu Casa
374,Itoman,JP,66.22,few clouds,26.1247,127.6694,Southern Beach Hotel & Resort Okinawa
376,Half Moon Bay,US,61.61,mist,37.4636,-122.4286,"The Ritz-Carlton, Half Moon Bay"
377,Broken Hill,AU,64.11,few clouds,-31.95,141.4333,Royal Exchange Hotel
378,Salalah,OM,77.09,clear sky,17.0151,54.0924,"HAMDAN PLAZA HOTEL SALALAH, an HTG Hotel"
379,Mar Del Plata,AR,66.22,clear sky,-38.0023,-57.5575,Gran Hotel Mar del Plata
380,Severnoye,RU,24.39,light snow,56.3491,78.3619,Gostinitsa Severyanka
381,Asau,RO,34.75,broken clouds,46.4333,26.4,Casa Mika Ciobanus
382,Raudeberg,NO,36.27,overcast clouds,61.9875,5.1352,Nordre Silda.
383,Mercedes,AR,79.52,few clouds,-34.6515,-59.4307,Posada del Inti Centro
384,Yeppoon,AU,78.58,overcast clouds,-23.1333,150.7333,Villa Mar Colina
385,Birjand,IR,34.27,clear sky,32.8663,59.2211,Birjand Tourist Hotel
386,Changli,CN,33.03,clear sky,39.7042,119.1506,7Days Inn Qinhuangdao Changli Jieyang Street
387,Nerang,AU,77.99,overcast clouds,-27.9833,153.3333,RACV Royal Pines Resort Gold Coast
388,Faya,SA,54.12,clear sky,18.3851,42.4509,املاك خالد الشعشوع
389,Bowen,AU,82.62,overcast clouds,-20.0167,148.2333,Castle Motor Lodge Motel
390,Kanigoro,ID,72.79,overcast clouds,-8.13,112.219,Musafer Villa ( Villa Erlin )
391,Samarai,PG,82.74,overcast clouds,-10.6167,150.6667,Nuli Sapi
392,Nha Trang,VN,75.2,overcast clouds,12.25,109.1833,Sheraton Nha Trang Hotel & Spa
393,Bathsheba,BB,81.21,scattered clouds,13.2167,-59.5167,Atlantis Hotel
394,Saldanha,ZA,57.25,few clouds,-33.0117,17.9442,Blue Bay Lodge
395,Krasnoye,UA,33.19,overcast clouds,49.9145,24.6134,Feniks
396,Coahuayana,MX,92.68,broken clouds,18.7333,-103.6833,El rranchito michuacan de ocampos
397,Benghazi,LY,61.3,scattered clouds,32.1167,20.0667,Tibesti Hotel
398,Mubi,NG,74.21,overcast clouds,10.2676,13.2644,Hotel
399,Gubbio,IT,38.21,broken clouds,43.3545,12.5725,Park Hotel ai Cappuccini
400,Maniitsoq,GL,23.38,light snow,65.4167,-52.9,Hotel Heilmann Lyberth
401,Ballina,AU,75.16,scattered clouds,-28.8667,153.5667,Ramada Hotel & Suites by Wyndham Ballina Byron
402,Gediz,TR,45.68,clear sky,39.0417,29.41,Bilginler Kız Öğrenci Yurdu
403,Palmer,US,57.7,overcast clouds,42.1584,-72.3287,Wedgewood Motel
405,Tumpat,MY,73.38,few clouds,6.1978,102.171,Baan Tanyong B&B
406,Anaco,VE,84.33,broken clouds,9.4389,-64.4728,SAIVEN MALL (SAIVEN C.A.)
407,Sao Filipe,CV,77.74,few clouds,14.8961,-24.4956,Hotel Xaguate
408,Grand Baie,MU,78.46,clear sky,-20.0182,57.5802,Trou aux Biches Beachcomber Golf Resort & Spa
409,Liku,ID,76.19,overcast clouds,-0.7275,119.8922,Wahyu
410,Lyuban,BY,30.09,light snow,52.7985,28.0048,"Gostinitsa ""Oressa"""
411,Esso,RU,15.84,light snow,55.9333,158.7,Paramushir Tur
412,Santa Isabel Do Rio Negro,BR,75.94,moderate rain,-0.4139,-65.0192,Hotel GSA
414,Wanning,CN,63.64,overcast clouds,18.8003,110.3967,Paradise Hotel
416,Victoria,HK,65.32,clear sky,22.2855,114.1577,Mini Hotel Central
417,Les Cayes,HT,80.13,clear sky,18.2,-73.75,Villa Orphee
418,Rincon,US,69.13,overcast clouds,32.296,-81.2354,Days Inn Rincon
420,Gizo,SB,82.53,moderate rain,-8.103,156.8419,Imagination Island
422,Belmonte,BR,79.3,broken clouds,-15.8631,-38.8828,Pousada Monte Carmelo O Pão
423,Kruisfontein,ZA,60.89,broken clouds,-34.0033,24.7314,Oyster Bay House Rental
424,Requena,ES,50.7,broken clouds,39.4883,-1.1004,Hotel Avenida
425,Rayon,MX,70.95,broken clouds,19.1444,-99.5836,La Paloma
426,Malanje,AO,64.22,light rain,-9.5402,16.341,Hotel Ginga
428,Richards Bay,ZA,73.69,overcast clouds,-28.783,32.0377,BON Hotel Waterfront Richards Bay
429,Kieta,PG,83.95,overcast clouds,-6.2167,155.6333,Uruna Bay Retreat
430,Lagoa,PT,63.54,overcast clouds,39.05,-27.9833,Casa Das Faias
431,Rongcheng,CN,45.07,clear sky,30.634,117.8517,Shell Shandong Liaocheng Development District South Huangshan Road Hotel
432,Eureka,US,52.41,overcast clouds,40.8021,-124.1637,Eureka Inn Trademark By Wyndham
435,Taft,IR,45.37,clear sky,31.7471,54.2088,بوم گردی حاجی زینل تفت
436,Corinto,GR,61.45,scattered clouds,37.9407,22.9573,Ephira Hotel
437,Port Hardy,CA,41.0,light rain,50.6996,-127.4199,Airport Inn
438,Mokokchung,IN,54.43,overcast clouds,26.3333,94.5333,Circuit House
439,Paita,PE,75.76,overcast clouds,-5.0892,-81.1144,Hotel Náutico de Paita
440,Clarence Town,AU,70.86,light rain,-32.5833,151.7833,River Downs Cottage
441,Saint-Pierre,RE,76.68,overcast clouds,-21.3393,55.4781,Lindsey Hôtel
442,Taltal,CL,66.16,overcast clouds,-25.4,-70.4833,Residencial Karime
443,Porkhov,RU,3.09,overcast clouds,57.765,29.5561,Hotel Parking
444,Bambui,BR,70.2,clear sky,-20.0064,-45.9769,Paulinelli Palace Hotel
446,Alta Floresta,BR,75.4,broken clouds,-9.8756,-56.0861,Floresta Amazonica Hotel
447,Murdochville,CA,25.68,light snow,48.9583,-65.5006,Les Suites économique Murdochville
448,Dunedin,NZ,51.04,overcast clouds,-45.8742,170.5036,Scenic Hotel Southern Cross
449,Mandan,US,13.37,clear sky,46.8267,-100.8896,Twin City Estates
450,Kloulklubed,PW,79.3,overcast clouds,7.0419,134.2556,Storyboard Beach Resort
451,Haimen,CN,53.49,clear sky,23.1935,116.6142,Jinghao Business Hotel
452,Puerto Colombia,CO,82.49,scattered clouds,10.9878,-74.9547,Hotel El Emigrante
453,Wajir,KE,79.92,overcast clouds,1.7471,40.0573,Al-bustan Hotel And Restaurant.
454,De Aar,ZA,66.67,clear sky,-30.6497,24.0123,Nyibiba Guesthouse
455,Torbat-E Jam,IR,48.52,broken clouds,35.244,60.6225,White building
457,Soldotna,US,33.96,mist,60.4878,-151.0583,Aspen Hotel Soldotna
458,Daru,PG,80.78,overcast clouds,-9.0763,143.2092,Daru Lodge
459,Akim Swedru,GH,77.14,overcast clouds,5.8938,-1.0164,Green Pearls Inn
460,Nueve De Julio,AR,78.85,clear sky,-35.4444,-60.8831,Grand Hotel Libertad - GHL
461,Koshurnikovo,RU,8.74,overcast clouds,54.1667,93.3,Outskirts Manor
462,Necochea,AR,72.03,clear sky,-38.5473,-58.7368,dyd -mar Hotel
464,Bintulu,MY,73.81,few clouds,3.1667,113.0333,900 Boutique INN
465,Tuskegee,US,64.22,moderate rain,32.424,-85.6916,Macon Motel
466,Shimoda,JP,56.1,broken clouds,34.6667,138.95,Shimoda Tokyu Hotel
467,Klyuchi,RU,32.77,light snow,52.2667,79.1667,Vesolaya Mayovka
468,Son La,VN,48.4,clear sky,21.3167,103.9,Galaxy Grand Hotel
469,Port Lincoln,AU,58.75,overcast clouds,-34.7333,135.8667,Port Lincoln Hotel
470,Matagami,CA,15.91,light snow,49.7502,-77.6328,Hôtel Matagami
471,Camopi,GF,73.72,overcast clouds,3.1655,-52.3158,La pousada
472,Lima,PE,66.45,overcast clouds,-12.0432,-77.0282,Gran Hotel Bolivar Lima
473,Ayan,RU,6.15,overcast clouds,56.45,138.1667,Gostinitsa
474,Buala,SB,82.33,light rain,-8.145,159.5921,Maringe Lagoon Lodge
475,Qaqortoq,GL,21.7,scattered clouds,60.7167,-46.0333,Siniffik Inn
476,Tabuk,PH,69.03,overcast clouds,17.4189,121.4443,Golden Berries Hotel and Convention
477,La Orilla,MX,83.97,clear sky,17.9833,-102.2333,Baymont by Wyndham Lazaro Cardenas
478,Tignere,CM,71.6,overcast clouds,7.3667,12.65,SADECK
479,Kharp,RU,5.61,overcast clouds,66.8014,65.8081,"Hotel ""Sob"""
480,Bafq,IR,51.3,scattered clouds,31.6128,55.4107,Alamdar Hotel
481,Fortuna,US,52.14,overcast clouds,40.5982,-124.1573,Super 8 by Wyndham Fortuna
483,Yar-Sale,RU,7.32,overcast clouds,66.8333,70.8333,Yalemd
484,Stornoway,GB,40.96,broken clouds,58.2093,-6.3865,Caladh Inn
485,Ewa Beach,US,75.15,heavy intensity rain,21.3156,-158.0072,Uncle Junior Robert
486,Vila Do Maio,CV,75.99,few clouds,15.1333,-23.2167,Hotel Marilu
487,Suluq,LY,60.91,few clouds,31.6682,20.2521,منزل عبدالواحد خليفة الفاخري
489,Lalibela,ET,55.49,clear sky,12.0333,39.0333,Honey Land Hotel Lalibela
490,Leshukonskoye,RU,17.42,overcast clouds,64.8989,45.7622,Pryalitsa Hostel
491,Abu Kamal,SY,53.65,overcast clouds,34.4506,40.9171,محطة التلفاز
492,Normandin,CA,28.71,snow,48.8333,-72.5321,Chambres MB Normandin (Lac St -Jean)
493,Manzhouli,CN,15.49,clear sky,49.6,117.4333,Angala International Youth Hostel
494,Tigil,RU,25.95,snow,57.8,158.6667,Tigil'
495,Sambava,MG,75.7,light rain,-14.2667,50.1667,Melrose
496,Rio Grande,BR,71.71,few clouds,-32.035,-52.0986,Hotel Atlântico Rio Grande
497,Umm Lajj,SA,74.21,few clouds,25.0213,37.2685,Moon light Furnished Units
498,Roald,NO,37.09,broken clouds,62.5833,6.1333,Flem Cabins
500,Ilanskiy,RU,25.68,overcast clouds,56.2358,96.065,"Gostinitsa ""Berezka"""
503,Millinocket,US,52.36,overcast clouds,45.6573,-68.7098,Katahdin Inn & Suites
504,Helong,CN,18.3,clear sky,42.5397,128.9972,Helong Hotel
505,Tzucacab,MX,84.65,broken clouds,20.0667,-89.05,Hotel Jabines Centro
506,Caravelas,BR,76.69,moderate rain,-17.7125,-39.2481,Pousada dos Navegantes
507,Bayir,TR,55.92,light rain,37.2687,28.2167,Hotel Babadag
510,Methoni,GR,55.22,overcast clouds,36.8197,21.7049,Methoni Beach Hotel
511,Bodden Town,KY,86.0,few clouds,19.2833,-81.25,Will T Place
512,Ahipara,NZ,70.61,overcast clouds,-35.1667,173.1667,Ahipara Holiday Park
513,Esil,KZ,17.33,overcast clouds,51.9556,66.4042,Egorkino Hotel
514,Kalmar,SE,22.96,light snow,56.6616,16.3616,First Hotel Witt
515,Beihai,CN,60.96,clear sky,21.4833,109.1,21 Degree Hostel
516,Port Moresby,PG,80.02,scattered clouds,-9.4431,147.1797,Lamana Hotel (Port Moresby)
517,Seybaplaya,MX,87.26,clear sky,19.65,-90.6667,sala de fiesta san Rafael
518,Obihiro,JP,34.07,clear sky,42.9172,143.2044,Tokachi Gardens Hotel
519,Bac Lieu,VN,74.62,overcast clouds,9.285,105.7244,Khách sạn Sài Gòn Bạc Liêu
520,Kalemie,CD,71.64,overcast clouds,-5.9475,29.1947,Mahobilali
521,Koumac,NC,83.59,clear sky,-20.5667,164.2833,Le Monitel
522,Mwinilunga,ZM,61.52,light rain,-11.7358,24.4293,Kwakuwahi Lodge
523,Pathein,MM,65.77,few clouds,16.7833,94.7333,New Pammawaddy Hotel
524,Bjornevatn,NO,10.02,clear sky,69.6672,29.9847,Snowhotel Kirkenes & Gamme Northern Lights Cabins
525,Maralal,KE,57.6,broken clouds,1.0968,36.698,Ngari Hill Ecolodge
526,Nome,US,24.87,light snow,64.5011,-165.4064,Dredge 7 Inn
527,Svetlogorsk,BY,31.57,light snow,52.6333,29.7333,Hotel Svetlogorsk JBIK
529,Veraval,IN,72.79,clear sky,20.9,70.3667,Lords Inn Somnath
530,Borba,BR,76.96,light rain,-4.3878,-59.5939,Hotel da Amazônia
531,Chunskiy,RU,32.25,overcast clouds,56.0815,99.6342,Odisseya
532,Sao Joao Da Barra,BR,72.27,overcast clouds,-21.6403,-41.0511,Pousada Porto De Canoas
533,Buta,CD,72.21,scattered clouds,2.7858,24.73,HOTEL BISO NA BISO
534,Axim,GH,80.04,broken clouds,4.8699,-2.2405,Axim Beach Resort And Spa
535,Corpus Christi,US,72.16,overcast clouds,27.8006,-97.3964,"Holiday Inn Corpus Christi Downtown Marina, an IHG Hotel"
536,Vila Franca Do Campo,PT,64.2,overcast clouds,37.7167,-25.4333,Pestana Bahia Praia
537,Hwange,ZW,74.8,overcast clouds,-18.3693,26.5019,Hwange Colliery Guest House
538,Mazyr,BY,31.6,light snow,52.0495,29.2456,Euro Mini-Hotel
540,Biltine,TD,75.63,clear sky,14.5333,20.9167,Hôtel Trois Étoiles de Biltine
541,Moorhead,US,1.36,clear sky,46.8739,-96.7676,"Courtyard by Marriott Fargo Moorhead, MN"
542,Cooma,AU,60.57,overcast clouds,-36.2333,149.1333,High Country Motel
543,Usinsk,RU,10.85,light snow,65.9939,57.5281,Dobro Pozhalovaty
544,Grand Gaube,MU,78.39,clear sky,-20.0064,57.6608,Veranda Paul et Virginie Hotel & Spa
545,Kupang,ID,81.43,overcast clouds,-10.1667,123.5833,Hotel On The Rock by Prasanthi
546,Moron,AR,76.95,clear sky,-34.6534,-58.6198,Hotel Morón
547,Chongwe,ZM,75.74,broken clouds,-15.3292,28.682,Grakas Lodge
549,Izumo,JP,37.35,scattered clouds,35.3667,132.7667,Toyoko-Inn Izumoshi ekimae
550,Invermere,CA,23.38,overcast clouds,50.5167,-116.0354,Copper Point Resort
551,Edson,CA,21.34,clear sky,53.5835,-116.4356,"Holiday Inn Express & Suites Edson, an IHG Hotel"
552,Ashland,US,33.87,scattered clouds,40.8167,-82.2665,"Holiday Inn Express & Suites Ashland, an IHG Hotel"
553,Tocopilla,CL,69.3,overcast clouds,-22.092,-70.1979,Hotel Galvarino
554,Waipawa,NZ,56.44,light rain,-41.4122,175.5153,Tora Coastal Walk
555,Escuinapa,MX,84.11,overcast clouds,22.85,-105.8,""" Hotel IQ "" de Escuinapa"
557,Aquiraz,BR,82.22,overcast clouds,-3.9014,-38.3911,Pousada Rua Camurupim
558,Bilma,NE,67.95,clear sky,18.6853,12.9164,Expeditions Ténére voyages
559,Rafaela,AR,89.06,clear sky,-31.2503,-61.4867,Parra Hotel & Suites
560,Kavaratti,IN,80.06,clear sky,10.5669,72.642,Hotels in Lakshadweep Islands
562,Ende,ID,79.2,overcast clouds,-8.8432,121.6623,Dwi Putra Hotel - Ende
563,Nishihara,JP,65.48,few clouds,26.1842,127.7558,Minshuku Agaihama
564,Shunyi,CN,22.95,clear sky,40.125,116.6453,Beijing Mingchen Holiday Hotel
565,Elbrus,RU,30.2,broken clouds,43.2577,42.6443,Otel' Pik Yevropy
566,Isla Mujeres,MX,82.45,clear sky,21.2311,-86.731,Hotel La Joya Isla Mujeres
567,Xai-Xai,MZ,80.8,scattered clouds,-25.0519,33.6442,Complexo da Familia
568,Windsor,CA,34.97,overcast clouds,42.3001,-83.0165,Howard Johnson Plaza by Wyndham Windsor
569,Shangzhi,CN,13.33,broken clouds,45.2167,127.9667,Ocean Zhixing Business Clubhouse
570,Morehead,US,40.14,clear sky,37.2711,-87.1764,CCI Express Inn
571,Auki,SB,81.45,overcast clouds,-8.7676,160.7034,Auki Motel
572,Sydney,AU,73.26,light rain,-33.8679,151.2073,The Grace Sydney
573,Manaure,CO,87.91,scattered clouds,11.7751,-72.4445,Hotel Palaaima
574,Bradenton,US,77.05,clear sky,27.4989,-82.5748,Courtyard by Marriott Bradenton Sarasota/Riverfront
575,Chincha Alta,PE,68.59,overcast clouds,-13.4099,-76.1323,Buena Vista Casa Hotel
576,Mount Isa,AU,74.97,overcast clouds,-20.7333,139.5,ibis Styles Mt Isa Verona
577,Sur,OM,72.1,clear sky,22.5667,59.5289,Sur Plaza Hotel
578,Maarianhamina,AX,4.86,clear sky,60.0973,19.9348,Park Alandia Hotel
579,Akureyri,IS,31.93,light snow,65.6835,-18.0878,Icelandair Hotel Akureyri
580,Knysna,ZA,59.4,broken clouds,-34.0363,23.0471,Protea Hotel by Marriott Knysna Quays
581,Geeste,DE,37.94,overcast clouds,52.6,7.2667,Pension AJETO Dalum
582,Uppsala,SE,7.43,broken clouds,60.0,17.75,Läderskål
583,Halifax,CA,55.09,overcast clouds,44.6453,-63.5724,Hotel Halifax
584,Korostyshiv,UA,33.3,overcast clouds,50.3172,29.0563,Эдем
585,Mana,GF,77.52,overcast clouds,5.6592,-53.7767,LE SAMANA
586,Deogarh,IN,64.96,clear sky,21.5333,84.7333,Amit Henej House
588,Waingapu,ID,78.78,overcast clouds,-9.6567,120.2641,Pondok Wisata Elim
589,Kapiri Mposhi,ZM,72.57,broken clouds,-13.9652,28.6809,MA 22 LODGE
590,Nara,JP,51.26,light rain,34.6851,135.8049,Guesthouse Nara Komachi
591,Mnogovershinnyy,RU,12.06,overcast clouds,53.9353,139.9242,Obshchezhitiye 14
592,Fochabers,GB,38.89,clear sky,57.6136,-3.0957,The Gordon Arms Hotel
594,Zhuhai,CN,65.05,clear sky,22.2769,113.5678,Nanyang Seascape Hotel Zhuhai Hotel
595,Soyo,AO,78.87,broken clouds,-6.1349,12.3689,Hotel Mpampa
596,Ereymentau,KZ,18.66,overcast clouds,51.6199,73.1033,"Gostinitsa ""Dostyk"""
597,Vilcun,CL,76.86,clear sky,-38.65,-72.2333,"Rayen-Co, Rural Tourism"
598,Coachella,US,84.52,clear sky,33.6803,-116.1739,Fantasy Springs Resort Casino
599,Sola,VU,76.39,moderate rain,-13.8833,167.55,Leumerus Bungalows
600,Xianyang,CN,45.64,clear sky,34.3378,108.7026,铁路大厦
601,Clyde River,CA,10.63,light snow,70.4692,-68.5914,Qamaq Hotel
602,Joshimath,IN,33.1,clear sky,30.5667,79.5667,Shivalik Camps & Resort
603,Molochnoye,RU,9.66,light snow,59.2917,39.6787,"""Detskiy Sad Dlya Vzroslykh"""
604,Darhan,MN,9.12,overcast clouds,49.4867,105.9228,Buudai Hotel
605,Coxim,BR,83.91,broken clouds,-18.5067,-54.76,Hotel Avenida
606,Linhares,BR,70.97,overcast clouds,-19.3911,-40.0722,Hotel Conceição
607,Saurimo,AO,64.98,light rain,-9.6608,20.3916,Hotel Kawissa Saurimo
608,Ahuimanu,US,74.91,moderate rain,21.4447,-157.8378,Paradise Bay Resort
609,Mahanoro,MG,73.53,clear sky,-19.9,48.8,BUNGALOW MAHAMANINA
611,Wanaka,NZ,53.1,broken clouds,-44.7,169.15,Wanaka Homestead Lodge and Cottages
612,Havoysund,NO,25.03,overcast clouds,70.9963,24.6622,Arctic View Glamping & Restaurant
613,Meulaboh,ID,77.63,broken clouds,4.1363,96.1285,Kost Pria
614,Altoona,US,45.82,overcast clouds,40.5187,-78.3947,Wingate by Wyndham Altoona Downtown/Medical Center
616,Mizdah,LY,45.48,clear sky,31.4451,12.9801,محمدالمبروك الاريقط
617,Alushta,UA,53.78,overcast clouds,44.6667,34.4167,Villa Lubimaya
618,Nan,TH,57.13,clear sky,18.8333,100.6667,สะเนียน2
619,Cardedeu,ES,51.08,broken clouds,41.6398,2.3574,Hotel Gastronòmic Can Ribalta
620,Saint Anthony,US,9.14,clear sky,45.0205,-93.218,"Holiday Inn Express Roseville-St. Paul, an IHG Hotel"
621,Tera,NE,78.17,clear sky,14.0078,0.7531,Hotel Dar es salam
622,Gazanjyk,TM,48.09,clear sky,39.2446,55.5154,Railway motel
623,Spalding,US,62.89,mist,33.2668,-84.2833,Baymont by Wyndham Griffin
625,Naze,JP,63.52,clear sky,28.3667,129.4833,Shishime Hotel
627,Umba,RU,13.26,scattered clouds,66.6871,34.3429,Cedar Grass Beloye More
628,Fier,AL,50.18,overcast clouds,40.7239,19.5561,Hotel Fieri
629,Makakilo City,US,73.72,moderate rain,21.3469,-158.0858,Marriott's Ko Olina Beach Club
630,Shingu,JP,57.22,overcast clouds,33.7333,135.9833,Shingu UI Hotel
631,Ziarat,PK,31.3,clear sky,30.3823,67.7282,Pakiza Guest House
632,Broome,US,51.17,moderate rain,42.2506,-75.833,Chenango Valley State Park
633,Hualmay,PE,69.08,broken clouds,-11.0964,-77.6139,Hotel Villa Kitzia Huacho
634,Remedios,CU,86.92,scattered clouds,22.4947,-79.5458,Hostal Yunai
636,Baruun-Urt,MN,19.62,few clouds,46.6806,113.2792,Ахмадын амралт сувилал
637,Lashio,MM,58.32,broken clouds,22.9333,97.75,Hotel CF Lashio - Burmese Only
638,Ardakan,IR,50.07,broken clouds,32.31,54.0175,Ardakan Hotel
639,Shache,CN,29.5,clear sky,38.4167,77.2406,Delong Hotel
640,Sulangan,PH,80.62,overcast clouds,11.1373,123.7228,Maia's Beach Resort
641,Puerto Narino,CO,75.15,light rain,-3.7703,-70.3831,Eware Refugio Amazonico
642,Road Town,VG,80.69,scattered clouds,18.4167,-64.6167,"ZINGARA 76ft Catamaran, full crew-all included"
643,Touros,BR,81.5,few clouds,-5.1989,-35.4608,INN NEW HORIZON
645,Pahrump,US,68.25,overcast clouds,36.2083,-115.9839,Best Western Pahrump Oasis
646,Gazojak,TM,44.26,broken clouds,41.1875,61.4036,In gowy adamlaryñ yaśayan oyi
647,Mikumi,TZ,69.3,light rain,-7.4041,36.9831,Morio Motel and Campsite
649,Angoche,MZ,77.45,broken clouds,-16.2325,39.9086,Guest House HESADA
650,Surt,LY,56.26,clear sky,31.2089,16.5887,الهادي ابوشعاله سرت
651,Mandera,KE,83.48,broken clouds,3.9366,41.867,Mwalimu Guest mandera
653,Chinsali,ZM,64.89,scattered clouds,-10.5414,32.0816,Chisakatu Guest House
654,Novo Aripuana,BR,76.17,moderate rain,-5.1206,-60.3797,Hotel Ezequiel
655,Kirakira,SB,83.26,overcast clouds,-10.4544,161.9205,SanBiz Lodge
656,Sohbatpur,PK,61.18,clear sky,28.5202,68.5434,Allu Hotel
657,Sovik,NO,21.18,clear sky,65.9333,12.4667,Stokka gård
658,Bundaberg,AU,77.29,overcast clouds,-24.85,152.35,Takalvan Motel
660,Farkhor,TJ,44.65,overcast clouds,37.4922,69.4036,Khonai Abdulkhayrov
662,Huangchuan,CN,40.12,few clouds,32.1272,115.0394,Guangzhou International Hotel
663,Omboue,GA,75.65,overcast clouds,-1.5746,9.2618,Hotel Olako
666,Southbridge,US,58.26,overcast clouds,42.0751,-72.0334,Southbridge Hotel & Conference Center
667,Monticello,US,7.95,few clouds,45.3055,-93.7941,Super 8 by Wyndham Monticello
668,Bima,ID,77.76,overcast clouds,-8.4667,118.7167,Lambitu Hotel
669,Silvassa,IN,70.47,clear sky,20.2667,73.0167,Wonderland Resort
670,Soe,ID,72.09,overcast clouds,-9.8607,124.284,Dena Hotel
672,Oudtshoorn,ZA,59.88,overcast clouds,-33.5907,22.2014,Earthbound Guest House
